[{"name":"Kirby","surname":"Knox","city":"Riparbella","location":"54.95753, -140.59682"},{"name":"Chaim","surname":"Valencia","city":"Shepparton","location":"-37.40983, -20.73116"},{"name":"Colette","surname":"Whitehead","city":"Sint-Kruis-Winkel","location":"54.60319, 154.17566"},{"name":"Maxwell","surname":"Burke","city":"Moere","location":"74.59532, -157.02751"},{"name":"Illiana","surname":"Lawrence","city":"Harbour Grace","location":"89.88085, 57.44323"},{"name":"Shellie","surname":"Barber","city":"Arvier","location":"-10.5724, -38.02957"},{"name":"Garrison","surname":"Soto","city":"Crowsnest Pass","location":"-28.79339, 39.47173"},{"name":"Stone","surname":"Bishop","city":"Cropalati","location":"10.3501, 8.69858"},{"name":"Astra","surname":"Fuentes","city":"Deerlijk","location":"-82.55012, -15.9305"},{"name":"Clayton","surname":"Sloan","city":"Hanau","location":"-18.33751, 49.81349"},{"name":"Irma","surname":"Heath","city":"Quinte West","location":"43.59002, 57.13807"},{"name":"Brenden","surname":"Mcclain","city":"Portland","location":"-15.45718, -15.73365"},{"name":"Dominic","surname":"Ross","city":"Wigtown","location":"-66.19327, -44.22977"},{"name":"Madeson","surname":"Hubbard","city":"Malahide","location":"33.66712, 27.29525"},{"name":"Wyoming","surname":"Stokes","city":"Chemnitz","location":"-37.77633, 66.67653"},{"name":"Hermione","surname":"Pope","city":"Crotta d'Adda","location":"-20.00413, -4.64961"},{"name":"Abra","surname":"Blackwell","city":"Malartic","location":"34.67219, 104.88416"},{"name":"Hillary","surname":"Watts","city":"Guben","location":"-67.70091, -49.90427"},{"name":"Carter","surname":"Austin","city":"Reading","location":"65.09255, 2.35922"},{"name":"Kane","surname":"Day","city":"Sant'Eufemia a Maiella","location":"-55.1555, -101.47392"},{"name":"Ariel","surname":"Nieves","city":"Portland","location":"-9.64843, 52.46772"},{"name":"Britanney","surname":"Rollins","city":"Nemi","location":"-20.16723, 114.71766"},{"name":"Beverly","surname":"Bell","city":"Istres","location":"55.31681, -54.42044"},{"name":"Amela","surname":"Odonnell","city":"Stornaway","location":"5.77799, -76.03009"},{"name":"Bertha","surname":"Morrow","city":"Wanganui","location":"51.66096, -6.61237"},{"name":"Moses","surname":"Bass","city":"Gifhorn","location":"45.74023, 142.19297"},{"name":"Emmanuel","surname":"Beach","city":"San Gregorio nelle Alpi","location":"-6.32781, -102.84017"},{"name":"Ralph","surname":"Hughes","city":"Lï¿½beck","location":"-61.70068, -26.73832"},{"name":"Francis","surname":"Meyers","city":"Verrayes","location":"-32.73933, 88.47259"},{"name":"Christian","surname":"Cameron","city":"Granada","location":"34.90074, -100.45648"},{"name":"Ulla","surname":"Cooper","city":"Pau","location":"43.40302, 122.9242"},{"name":"Amaya","surname":"Garrett","city":"Ragnies","location":"-38.48542, 5.45529"},{"name":"Perry","surname":"Holder","city":"Kieldrecht","location":"59.54102, 79.00637"},{"name":"Debra","surname":"Jensen","city":"Marystown","location":"-35.94068, 4.82896"},{"name":"Clinton","surname":"Mays","city":"Nocera Umbra","location":"17.56983, -83.65299"},{"name":"Amanda","surname":"Dyer","city":"Frigento","location":"-55.19777, -12.82829"},{"name":"Lois","surname":"Marquez","city":"Silius","location":"84.65607, 129.70787"},{"name":"Darryl","surname":"Gilliam","city":"Milmort","location":"86.44804, 8.3366"},{"name":"Sawyer","surname":"Noble","city":"Abingdon","location":"79.68833, -32.43625"},{"name":"Ivor","surname":"Stanton","city":"Eckville","location":"-14.42281, -31.91084"},{"name":"Elijah","surname":"Rodriquez","city":"Malï¿½ves-Sainte-Marie-Wastines","location":"48.73497, -22.22474"},{"name":"Rhonda","surname":"Sears","city":"Karlsruhe","location":"-13.51583, 96.53455"},{"name":"Bertha","surname":"Mays","city":"Augusta","location":"73.1635, -52.37769"},{"name":"Jameson","surname":"Sexton","city":"Coleville Lake","location":"74.38584, -165.5382"},{"name":"Julie","surname":"Barnett","city":"Cache Creek","location":"63.78181, 84.98169"},{"name":"Chelsea","surname":"Bolton","city":"Lodelinsart","location":"-5.16575, 88.56977"},{"name":"Ursula","surname":"Oneal","city":"Cuenca","location":"-57.43594, 168.17498"},{"name":"Nolan","surname":"Wade","city":"Ravels","location":"-58.03476, 165.59343"},{"name":"Winifred","surname":"Richards","city":"Holyhead","location":"87.99695, 118.52516"},{"name":"Samantha","surname":"Cummings","city":"Ripabottoni","location":"-51.50205, 50.14727"},{"name":"Savannah","surname":"Kirkland","city":"Biarritz","location":"-80.9049, -8.78686"},{"name":"Amal","surname":"Franco","city":"Bekegem","location":"-20.16336, 8.48296"},{"name":"Lars","surname":"Hendrix","city":"Thame","location":"-85.91416, 113.25238"},{"name":"Kessie","surname":"Stark","city":"Vieste","location":"45.25646, 5.81505"},{"name":"Zachery","surname":"Gutierrez","city":"Assen","location":"30.39363, -160.96217"},{"name":"Adam","surname":"Marquez","city":"Whittlesey","location":"-27.57443, -78.8251"},{"name":"Elizabeth","surname":"Kaufman","city":"Mï¿½hlheim am Main","location":"77.63645, 98.0127"},{"name":"Brynne","surname":"Copeland","city":"Nicoya","location":"29.6611, -127.90879"},{"name":"Flavia","surname":"Chandler","city":"Lens-Saint-Servais","location":"-38.20084, 95.61793"},{"name":"Chaney","surname":"Workman","city":"Sherbrooke","location":"-71.21661, -3.87051"},{"name":"Timon","surname":"Schroeder","city":"Baton Rouge","location":"-65.28262, 31.89615"},{"name":"Igor","surname":"Spencer","city":"Marchienne-au-Pont","location":"60.65265, 87.83202"},{"name":"Quemby","surname":"Hopkins","city":"San Venanzo","location":"74.73666, -138.72301"},{"name":"Moses","surname":"Wong","city":"Griesheim","location":"-68.80481, -61.21918"},{"name":"Inga","surname":"Wilkerson","city":"Sutton","location":"-10.42069, 169.1217"},{"name":"Cullen","surname":"Wilson","city":"Patalillo","location":"51.67192, -130.11301"},{"name":"Bell","surname":"English","city":"Jackson","location":"28.42618, 53.20387"},{"name":"Matthew","surname":"Hebert","city":"Rijkevorsel","location":"-63.92432, 9.38368"},{"name":"Cadman","surname":"Pittman","city":"Gullegem","location":"27.40823, -138.07741"},{"name":"Helen","surname":"Turner","city":"Klemskerke","location":"-42.65694, -12.38641"},{"name":"Stacey","surname":"Sargent","city":"Traiskirchen","location":"-8.46958, 173.65703"},{"name":"Shaeleigh","surname":"Dillon","city":"Maple Ridge","location":"-33.27989, -0.45118"},{"name":"Brielle","surname":"Aguilar","city":"Saint-Hilarion","location":"-59.22968, -58.46346"},{"name":"Roth","surname":"Ortega","city":"LaSalle","location":"-17.57909, 176.74752"},{"name":"Halla","surname":"Bush","city":"North Vancouver","location":"31.54595, 33.13961"},{"name":"Eugenia","surname":"Gonzalez","city":"Irricana","location":"-86.70365, 41.86467"},{"name":"Rhoda","surname":"House","city":"Zerba","location":"42.22393, 156.51105"},{"name":"Rana","surname":"Bridges","city":"Dollard-des-Ormeaux","location":"-6.11035, -71.94768"},{"name":"Xantha","surname":"Dixon","city":"Koersel","location":"41.23144, 159.26995"},{"name":"Farrah","surname":"Moran","city":"Chieti","location":"-9.43194, -82.64773"},{"name":"Maryam","surname":"Knowles","city":"Belfort","location":"83.5536, -132.02138"},{"name":"Rooney","surname":"Gordon","city":"Milena","location":"32.71659, 113.09125"},{"name":"September","surname":"Jordan","city":"Albagiara","location":"53.52746, -134.38017"},{"name":"Eve","surname":"Foley","city":"Richmond","location":"86.01571, -106.64079"},{"name":"Priscilla","surname":"Nolan","city":"Colleretto Castelnuovo","location":"20.52609, 1.71367"},{"name":"Charles","surname":"Wise","city":"Hornsea","location":"-10.84713, -53.54927"},{"name":"Leo","surname":"Robertson","city":"Ãguas Lindas de GoiÃ¡s","location":"-11.23674, -79.51381"},{"name":"Desirae","surname":"Marsh","city":"Mata de PlÃ¡tano","location":"40.16306, 6.07681"},{"name":"Galvin","surname":"Leonard","city":"Frigento","location":"32.11095, -86.31617"},{"name":"Caesar","surname":"Silva","city":"DivinÃ³polis","location":"0.097, -154.30226"},{"name":"Signe","surname":"Kent","city":"Tranent","location":"70.91784, -83.50825"},{"name":"Hayley","surname":"Franks","city":"Ramsdonk","location":"65.63529, -134.35008"},{"name":"Carson","surname":"Carson","city":"Bonefro","location":"23.94157, -28.70631"},{"name":"Walter","surname":"Hunt","city":"Alert Bay","location":"1.98125, -75.45209"},{"name":"Ian","surname":"Daniels","city":"Castel Colonna","location":"19.22112, 54.83218"},{"name":"Adrienne","surname":"Hendrix","city":"Empoli","location":"-43.5105, -85.29556"},{"name":"Winifred","surname":"Young","city":"Northumberland","location":"30.11398, 163.58325"},{"name":"Giacomo","surname":"Dunn","city":"Warspite","location":"15.89686, 86.17673"},{"name":"Shafira","surname":"Mcguire","city":"Werder","location":"-45.298, 101.28724"},{"name":"Leah","surname":"Price","city":"AnÃ¡polis","location":"-18.55142, 34.66506"}{"name":"Amelia","surname":"Trevino","city":"Castel del Giudice","location":"-16.12344, 109.27703"},{"name":"Stephen","surname":"Stanton","city":"Mercedes","location":"-12.42721, 70.72842"},{"name":"Merritt","surname":"Fisher","city":"Houffalize","location":"29.24513, -95.35402"},{"name":"Alvin","surname":"Case","city":"Chambave","location":"88.8478, 55.4122"},{"name":"Eagan","surname":"Pate","city":"Eckville","location":"-80.20925, -59.58379"},{"name":"Buffy","surname":"Forbes","city":"Hoyerswerda","location":"7.40173, 110.31684"},{"name":"Igor","surname":"Ballard","city":"Hull","location":"9.69575, 91.7514"},{"name":"Amity","surname":"Ortega","city":"Sint-Renelde Saintes","location":"1.31428, -86.65883"},{"name":"Odette","surname":"Ramirez","city":"Brussegem","location":"-68.65599, -41.15748"},{"name":"Aubrey","surname":"Bradford","city":"Zwettl-NiederÃ¶sterreich","location":"82.57111, -53.18707"},{"name":"Alisa","surname":"Campbell","city":"Shipshaw","location":"-17.5117, 16.64036"},{"name":"Plato","surname":"Allen","city":"Wigtown","location":"-27.47798, 69.26888"},{"name":"David","surname":"Ochoa","city":"Sint-Ulriks-Kapelle","location":"22.0025, 4.78134"},{"name":"Kristen","surname":"Perkins","city":"SÃ£o JosÃ© dos Pinhais","location":"-68.29033, -97.24247"},{"name":"Carlos","surname":"Zimmerman","city":"Macklin","location":"57.83359, -34.54585"},{"name":"Casey","surname":"Campbell","city":"BraganÃ§a","location":"-64.76882, -166.34987"},{"name":"Petra","surname":"Manning","city":"Langley","location":"26.43384, 169.17179"},{"name":"Nell","surname":"Mcneil","city":"South Portland","location":"10.6767, -98.04313"},{"name":"Ulric","surname":"Gay","city":"Beaumaris","location":"15.44244, -96.52357"},{"name":"Cameron","surname":"Henderson","city":"Lochranza","location":"-12.13624, 119.25576"},{"name":"Ferdinand","surname":"Hoover","city":"Langenburg","location":"-19.73536, 53.73052"},{"name":"Hayfa","surname":"Conway","city":"Lakewood","location":"-46.68081, 15.89372"},{"name":"Francis","surname":"Horne","city":"Santa Caterina Villarmosa","location":"-36.74973, -178.17927"},{"name":"Kyla","surname":"Acevedo","city":"Saint-Denis","location":"-0.19432, -17.67033"},{"name":"Vivien","surname":"Chang","city":"San Vicente","location":"82.84895, -152.10627"},{"name":"Alice","surname":"Gay","city":"Bevilacqua","location":"-8.60062, 126.58441"},{"name":"Idona","surname":"Booker","city":"Kontich","location":"-68.57677, 11.59151"},{"name":"September","surname":"Robinson","city":"Zelem","location":"39.20482, 22.99151"},{"name":"Whitney","surname":"Palmer","city":"Canberra","location":"80.46299, -15.90991"},{"name":"Rogan","surname":"Smith","city":"Bayreuth","location":"59.41848, -14.27989"},{"name":"Priscilla","surname":"Church","city":"Gulfport","location":"-42.95971, -159.89445"},{"name":"Shea","surname":"Marsh","city":"Herselt","location":"-21.06406, 12.69904"},{"name":"Wayne","surname":"Tate","city":"Castello Tesino","location":"-8.81481, -84.52456"},{"name":"Omar","surname":"Hudson","city":"La Valle/Wengen","location":"-6.94912, 46.58408"},{"name":"Cullen","surname":"Hartman","city":"Hoogeveen","location":"85.00967, -7.54502"},{"name":"Odessa","surname":"Hodge","city":"Akron","location":"-12.36754, -165.00338"},{"name":"Ginger","surname":"Simmons","city":"Thorembais-les-Bï¿½guines","location":"-82.81372, 106.45893"},{"name":"Kieran","surname":"Oneal","city":"Oklahoma City","location":"37.61938, 39.96042"},{"name":"Germane","surname":"Moran","city":"Otricoli","location":"81.98954, 16.62406"},{"name":"Joel","surname":"Hubbard","city":"Neu-Ulm","location":"11.59218, 148.74251"},{"name":"Alfonso","surname":"Cummings","city":"Isola del Gran Sasso d'Italia","location":"79.04189, -33.99891"},{"name":"Adena","surname":"Berg","city":"Bolinne","location":"84.21282, -140.45113"},{"name":"Cherokee","surname":"Anderson","city":"St. AndrÃ¤","location":"-17.16677, 15.86301"},{"name":"Ross","surname":"Puckett","city":"Gargazzone/Gargazon","location":"17.46677, 144.1038"},{"name":"Isabella","surname":"Wilder","city":"Cariboo Regional District","location":"3.95746, -134.89095"},{"name":"Dalton","surname":"Ortega","city":"Ajax","location":"18.18772, 49.65167"},{"name":"Giselle","surname":"Barton","city":"Loverval","location":"38.5274, 33.84016"},{"name":"Kyra","surname":"Mcgee","city":"Sterling Heights","location":"5.69352, 122.30183"},{"name":"Kirby","surname":"Washington","city":"Rea","location":"22.56075, -108.56767"},{"name":"Daquan","surname":"Holland","city":"Lac-Serent","location":"71.98892, -79.53766"},{"name":"Rashad","surname":"Hurst","city":"Chï¿½telet","location":"59.26201, -154.1769"},{"name":"Judith","surname":"Jenkins","city":"Drongen","location":"30.34025, -98.82375"},{"name":"Ralph","surname":"Newton","city":"Uitbergen","location":"-26.96145, -52.52095"},{"name":"Whilemina","surname":"Jones","city":"Auburn","location":"71.96787, -131.7264"},{"name":"Laurel","surname":"Vaughn","city":"Ville de Maniwaki","location":"39.39296, 167.89694"},{"name":"Lillian","surname":"Cash","city":"Cerami","location":"12.83608, 157.16037"},{"name":"Amethyst","surname":"Kramer","city":"Oss","location":"70.71935, -103.61822"},{"name":"Garrett","surname":"Blake","city":"Westlock","location":"31.43109, -167.48341"},{"name":"Fiona","surname":"Miranda","city":"Temse","location":"-16.56122, -121.95073"},{"name":"Vivien","surname":"Steele","city":"Sloten","location":"56.78841, 4.91277"},{"name":"Aidan","surname":"Munoz","city":"Hollogne-sur-Geer","location":"-43.17962, -81.91041"},{"name":"Erasmus","surname":"Cash","city":"San Martino in Pensilis","location":"-32.81189, -18.53237"},{"name":"Maxwell","surname":"Wallace","city":"Ãguas Lindas de GoiÃ¡s","location":"76.05815, 179.09414"},{"name":"Alea","surname":"Sweeney","city":"Runcorn","location":"81.29173, -9.40771"},{"name":"Brynne","surname":"Irwin","city":"Huissen","location":"40.60352, 143.68023"},{"name":"Colton","surname":"Berger","city":"Lockerbie","location":"-89.81513, 30.01934"},{"name":"Zena","surname":"Buckner","city":"Sainte-Flavie","location":"12.13011, 3.99437"},{"name":"Robert","surname":"Huffman","city":"Wï¿½rzburg","location":"60.72908, -177.44262"},{"name":"Courtney","surname":"Roach","city":"Siegendorf","location":"23.60627, 86.31141"},{"name":"Lee","surname":"Perkins","city":"Marystown","location":"34.24415, 118.8254"},{"name":"Hamilton","surname":"Porter","city":"Montecarotto","location":"-13.63607, -58.9623"},{"name":"Malcolm","surname":"Barber","city":"Badajoz","location":"76.56034, -106.99681"},{"name":"Graham","surname":"Ortega","city":"Sanluri","location":"35.5482, -41.52964"},{"name":"Phoebe","surname":"Peck","city":"Grosseto","location":"-40.94701, 128.92736"},{"name":"Maia","surname":"Skinner","city":"Maryborough","location":"-75.21369, 97.62399"},{"name":"Ila","surname":"Bernard","city":"Grand-Rosiï¿½re-Hottomont","location":"31.86938, 58.14012"},{"name":"Halla","surname":"Bell","city":"Saint-Mard","location":"25.46005, 71.4711"},{"name":"Selma","surname":"Stanton","city":"San Giovanni la Punta","location":"-74.01044, 171.3101"},{"name":"Hannah","surname":"Bradford","city":"Limburg a.d. Lahn","location":"-43.7788, -41.84291"},{"name":"Kiona","surname":"Norris","city":"Ligny","location":"-60.67959, -45.26485"},{"name":"Leslie","surname":"Beach","city":"Hines Creek","location":"-10.491, 162.35003"},{"name":"Elijah","surname":"Olson","city":"Bay Roberts","location":"59.58542, 78.75838"},{"name":"Cade","surname":"Barton","city":"Ceppaloni","location":"62.21386, -27.67331"},{"name":"Vance","surname":"Ruiz","city":"Ajax","location":"60.28648, -124.98112"},{"name":"Lionel","surname":"Hogan","city":"Grandrieu","location":"-11.97366, 106.55266"},{"name":"Paul","surname":"Small","city":"Zele","location":"-89.97005, 37.62176"},{"name":"Willa","surname":"Day","city":"Penticton","location":"-66.03363, 61.70325"},{"name":"Driscoll","surname":"Best","city":"Gougnies","location":"-21.74192, 89.93799"},{"name":"Anjolie","surname":"Howell","city":"Fortaleza","location":"7.35855, -44.85475"},{"name":"Lucy","surname":"Acevedo","city":"Orangeville","location":"49.11264, -41.38218"},{"name":"Sylvia","surname":"Mcgee","city":"Rockville","location":"34.56878, 38.38451"},{"name":"Tanisha","surname":"Sullivan","city":"Maastricht","location":"-26.5637, -27.05016"},{"name":"Vernon","surname":"Avila","city":"Santander","location":"86.84329, -37.813"},{"name":"Merrill","surname":"Webster","city":"Grado","location":"-78.86598, 108.94392"},{"name":"Brandon","surname":"Malone","city":"Saint-Georges","location":"28.58595, -15.60326"},{"name":"Hoyt","surname":"Fox","city":"Haverhill","location":"-61.7332, 106.36737"},{"name":"Ralph","surname":"Duran","city":"HÃ¶chst","location":"-61.57624, -162.20355"},{"name":"Clark","surname":"Little","city":"Vlezenbeek","location":"55.25667, -58.19742"},{"name":"Joshua","surname":"Mcfarland","city":"Monte San Savino","location":"42.67096, -3.20147"},{"name":"Sydnee","surname":"Cote","city":"Ponsacco","location":"-70.49561, -151.43665"}{"name":"Zorita","surname":"Powers","city":"Torgiano","location":"82.01877, 26.86237"},{"name":"Jeanette","surname":"Dillard","city":"Arsoli","location":"73.23342, -86.52714"},{"name":"Mohammad","surname":"Arnold","city":"Kakisa","location":"-4.74856, -13.36931"},{"name":"Zelda","surname":"Torres","city":"Ragogna","location":"-72.00621, 69.54015"},{"name":"Jillian","surname":"Abbott","city":"Deurne","location":"-16.61985, 24.48698"},{"name":"Beverly","surname":"Reese","city":"Motta Visconti","location":"-45.12798, 164.8494"},{"name":"Xenos","surname":"Neal","city":"Barchi","location":"51.55243, -14.31824"},{"name":"Carlos","surname":"Hernandez","city":"Monguelfo-Tesido/Welsberg-Taisten","location":"15.67312, -78.42526"},{"name":"Warren","surname":"Blackburn","city":"Gattatico","location":"-72.41234, -9.72019"},{"name":"Larissa","surname":"Shelton","city":"Stokkem","location":"-37.07238, 157.58591"},{"name":"Clarke","surname":"Shaw","city":"Rathenow","location":"47.24048, -148.99905"},{"name":"Tarik","surname":"Franco","city":"Silius","location":"-88.34443, -36.14229"},{"name":"Liberty","surname":"Wood","city":"Maasmechelen","location":"44.37544, -62.08972"},{"name":"Marny","surname":"William","city":"Scandriglia","location":"-83.05834, 15.27209"},{"name":"Elmo","surname":"Hull","city":"Torre Cajetani","location":"-16.81679, 67.98844"},{"name":"Jayme","surname":"Marks","city":"Baie-Saint-Paul","location":"38.74511, -147.51699"},{"name":"Barrett","surname":"Levy","city":"Houston","location":"-6.08783, 21.53283"},{"name":"Rana","surname":"Pace","city":"Regensburg","location":"58.13528, -72.86281"},{"name":"Honorato","surname":"Morrison","city":"Brescia","location":"84.61514, 150.76219"},{"name":"Audrey","surname":"Daniels","city":"Kawartha Lakes","location":"-70.46182, -79.76155"},{"name":"Tad","surname":"Hobbs","city":"Les Bons Villers","location":"-4.54778, -137.23251"},{"name":"Inez","surname":"Gaines","city":"Borghetto di Borbera","location":"-22.86848, -139.86959"},{"name":"Cora","surname":"Vang","city":"Blieskastel","location":"-44.53954, -103.08836"},{"name":"Alfreda","surname":"Marquez","city":"Hofheim am Taunus","location":"32.78641, 75.10517"},{"name":"Paki","surname":"Snider","city":"Provost","location":"63.49524, 137.99149"},{"name":"Ivor","surname":"Garcia","city":"Koblenz","location":"-72.81687, -7.42709"},{"name":"Tucker","surname":"Herrera","city":"Des Moines","location":"-19.77382, -79.85108"},{"name":"Amber","surname":"Contreras","city":"Zolder","location":"-77.46649, -13.75679"},{"name":"Lee","surname":"Mclean","city":"Cobourg","location":"0.43097, -45.74042"},{"name":"Christine","surname":"Odom","city":"San Lazzaro di Savena","location":"-28.70584, -170.61259"},{"name":"Marvin","surname":"Mason","city":"Glendale","location":"48.62174, -117.0221"},{"name":"Victoria","surname":"Acevedo","city":"Cache Creek","location":"-26.75563, 126.55318"},{"name":"Keith","surname":"Davenport","city":"Sijsele","location":"67.56925, -152.43516"},{"name":"Bo","surname":"Drake","city":"Huntingdon","location":"-54.77985, 1.12664"},{"name":"Melyssa","surname":"Wright","city":"Castelluccio Inferiore","location":"20.10063, -76.21691"},{"name":"Moana","surname":"Hooper","city":"Kirkland","location":"56.98115, -63.76483"},{"name":"Deanna","surname":"Gould","city":"Calle Blancos","location":"37.51514, 115.15234"},{"name":"Gloria","surname":"Hawkins","city":"Montone","location":"3.92639, -128.98466"},{"name":"Carlos","surname":"Witt","city":"Loverval","location":"56.15258, -171.51658"},{"name":"Lunea","surname":"Clemons","city":"Frankfort","location":"12.14866, -128.00621"},{"name":"Eaton","surname":"Sellers","city":"Schweinfurt","location":"-13.37012, -152.96706"},{"name":"Hamish","surname":"Richardson","city":"Frankfurt","location":"-13.72172, 86.5731"},{"name":"Regan","surname":"Forbes","city":"San Sostene","location":"-65.34761, 100.66055"},{"name":"Britanni","surname":"Hensley","city":"Cariboo Regional District","location":"85.62002, 157.24062"},{"name":"Alexander","surname":"Blair","city":"Picture Butte","location":"-44.12536, 99.29786"},{"name":"Rajah","surname":"Ray","city":"Lakeshore","location":"-12.7639, -144.01851"},{"name":"Shoshana","surname":"Aguilar","city":"Opgrimbie","location":"-18.4663, 133.44759"},{"name":"Geoffrey","surname":"Griffin","city":"Orp-le-Grand","location":"-1.52484, 129.67826"},{"name":"Allen","surname":"Leblanc","city":"Baarle-Hertog","location":"85.22822, 156.99182"},{"name":"Francesca","surname":"Cannon","city":"Lebbeke","location":"11.27416, 86.44823"},{"name":"Erich","surname":"Higgins","city":"Neder-Over-Heembeek","location":"-21.79282, -7.94125"},{"name":"Shana","surname":"Rowland","city":"Stamford","location":"56.23676, -99.75872"},{"name":"Heather","surname":"Mcfarland","city":"Champion","location":"-43.5158, 84.54709"},{"name":"Carl","surname":"Petersen","city":"Certaldo","location":"-65.77271, 173.10033"},{"name":"Channing","surname":"Ramos","city":"Trani","location":"-64.69663, 110.94489"},{"name":"Chiquita","surname":"Leach","city":"Salon-de-Provence","location":"47.67338, -89.54947"},{"name":"Martha","surname":"Haney","city":"Angers","location":"-23.4591, 91.36257"},{"name":"Jaden","surname":"Pitts","city":"Birkenhead","location":"5.16911, -57.58224"},{"name":"Meghan","surname":"Richard","city":"Drayton Valley","location":"68.18106, 118.39267"},{"name":"Shannon","surname":"Bradshaw","city":"Ravensburg","location":"-84.92179, -55.37633"},{"name":"Colorado","surname":"Hawkins","city":"Little Rock","location":"11.17218, -62.56292"},{"name":"Hu","surname":"Donaldson","city":"Trivigno","location":"40.40431, 51.48411"},{"name":"Hammett","surname":"Moore","city":"Drongen","location":"80.61053, 65.99665"},{"name":"Maris","surname":"Rowland","city":"Pointe-du-Lac","location":"-28.04162, 26.03019"},{"name":"Fay","surname":"Witt","city":"Medemblik","location":"3.97439, -1.80827"},{"name":"Armand","surname":"Clay","city":"Kaster","location":"8.72452, 116.25171"},{"name":"Lamar","surname":"Schneider","city":"Torella del Sannio","location":"-36.59029, 86.94383"},{"name":"Aurelia","surname":"Farrell","city":"Vanier","location":"20.96201, -15.27794"},{"name":"Wendy","surname":"Walters","city":"Vollezele","location":"-11.79957, 0.4243"},{"name":"Germaine","surname":"Rollins","city":"Tintigny","location":"-9.47418, -175.1066"},{"name":"Tana","surname":"Aguirre","city":"Orsogna","location":"-42.95668, -21.00834"},{"name":"Shea","surname":"Hicks","city":"Lakewood","location":"-66.26618, 16.19193"},{"name":"Luke","surname":"Rowe","city":"Torino","location":"34.88574, -172.91781"},{"name":"Wyoming","surname":"Hoover","city":"Fahler","location":"-10.99634, -20.27885"},{"name":"Alvin","surname":"Reese","city":"SÃ£o JosÃ© dos Pinhais","location":"-75.41734, 41.41995"},{"name":"Simone","surname":"Schmidt","city":"Korbach","location":"0.93625, 35.35813"},{"name":"Coby","surname":"Harris","city":"Colombo","location":"35.97378, -104.23247"},{"name":"Virginia","surname":"James","city":"Zignago","location":"-45.26859, -46.68612"},{"name":"Hermione","surname":"Higgins","city":"Vespolate","location":"-2.92378, 150.53229"},{"name":"Magee","surname":"Rivas","city":"ChapecÃ³","location":"53.63283, -162.66503"},{"name":"Walker","surname":"Newton","city":"Canmore","location":"39.61006, -101.73985"},{"name":"Melinda","surname":"Lancaster","city":"Geertruidenberg","location":"-43.84225, -107.70482"},{"name":"Magee","surname":"Byers","city":"Colico","location":"75.4296, -75.45041"},{"name":"Cyrus","surname":"Boyle","city":"King Township","location":"71.73707, 64.80547"},{"name":"Maile","surname":"Cain","city":"Koninksem","location":"-26.4401, 23.0173"},{"name":"Adria","surname":"Wyatt","city":"Maser","location":"18.51872, 126.60104"},{"name":"Lana","surname":"Copeland","city":"North Vancouver","location":"-73.21009, 0.99274"},{"name":"Whitney","surname":"Cardenas","city":"Champigny-sur-Marne","location":"68.35638, -88.44242"},{"name":"Lysandra","surname":"Lopez","city":"Llandrindod Wells","location":"77.15326, 153.74592"},{"name":"Colton","surname":"Chavez","city":"Macerata","location":"-83.37299, -2.75968"},{"name":"Lucius","surname":"Buckley","city":"Kallo","location":"54.67149, 138.60837"},{"name":"Adara","surname":"Roach","city":"Tullibody","location":"-50.00333, 107.15107"},{"name":"Sade","surname":"Hays","city":"Bonnyville Municipal District","location":"72.20732, 117.8"},{"name":"Isabella","surname":"Mitchell","city":"Anchorage","location":"25.93383, 62.36375"},{"name":"Judah","surname":"Duran","city":"Lembeek","location":"-84.22681, 172.34147"},{"name":"Fallon","surname":"Erickson","city":"Roosbeek","location":"-72.89871, -2.74007"},{"name":"Wayne","surname":"Sherman","city":"Cranbrook","location":"-65.64672, 130.43363"},{"name":"Yoko","surname":"Rosario","city":"Osnabrï¿½ck","location":"4.0543, -42.15699"},{"name":"Jerome","surname":"Hensley","city":"Athens","location":"-14.60482, 10.01055"},{"name":"Herman","surname":"Mills","city":"Dave","location":"-58.49292, -126.02"}{"name":"Tanya","surname":"Dickerson","city":"Spruce Grove","location":"9.88506, 99.38566"},{"name":"Lester","surname":"Barton","city":"Saint-Nazaire","location":"67.26982, 16.47645"},{"name":"Troy","surname":"Washington","city":"Las Vegas","location":"-52.10682, 6.28147"},{"name":"Cameron","surname":"Delacruz","city":"Vilvoorde","location":"-16.32494, -86.54279"},{"name":"Maite","surname":"Payne","city":"Langholm","location":"80.39813, -97.9369"},{"name":"Ivy","surname":"Montgomery","city":"Ospedaletto Lodigiano","location":"59.62858, -71.6379"},{"name":"Macey","surname":"Gibbs","city":"Hannï¿½che","location":"-48.45455, 166.26444"},{"name":"Robin","surname":"Buckley","city":"Christchurch","location":"-19.04083, 23.9771"},{"name":"Ivan","surname":"Wiley","city":"Canora","location":"61.70201, -126.9001"},{"name":"Damon","surname":"Fulton","city":"Rastatt","location":"-70.54053, 56.02234"},{"name":"Lila","surname":"Cruz","city":"San Giovanni la Punta","location":"-35.82159, -120.89861"},{"name":"Lyle","surname":"Salas","city":"Zwolle","location":"-38.67957, 42.47667"},{"name":"Brett","surname":"Petersen","city":"Caccamo","location":"8.22599, 127.58073"},{"name":"Blaze","surname":"Stewart","city":"Castor","location":"13.80159, -79.8918"},{"name":"Gemma","surname":"Knapp","city":"Isola del Gran Sasso d'Italia","location":"-70.7817, 90.61655"},{"name":"Emi","surname":"Welch","city":"Spiere","location":"24.39536, 112.76882"},{"name":"Ulla","surname":"Mays","city":"Foligno","location":"82.10615, -13.34824"},{"name":"Cassidy","surname":"Harmon","city":"Thorn","location":"-31.93125, 3.83044"},{"name":"Adara","surname":"Sharpe","city":"Scala Coeli","location":"17.4179, 62.98843"},{"name":"Jonah","surname":"Bird","city":"Macklin","location":"85.50465, 53.09878"},{"name":"Ali","surname":"Nielsen","city":"Bersillies-l'Abbaye","location":"9.05673, -116.49716"},{"name":"Roanna","surname":"Fernandez","city":"Covington","location":"-71.07151, -64.46362"},{"name":"Malik","surname":"Hebert","city":"Napier","location":"23.19756, -162.134"},{"name":"Hillary","surname":"Lambert","city":"Rocca Massima","location":"-6.56216, 115.27831"},{"name":"Holly","surname":"Sosa","city":"Rebecq","location":"2.72351, -77.27823"},{"name":"Brian","surname":"Castro","city":"Telfs","location":"-9.51355, 152.49025"},{"name":"Jenna","surname":"Blake","city":"Aliano","location":"50.10558, -75.92665"},{"name":"Carissa","surname":"Dorsey","city":"Darwin","location":"-82.87978, 29.10514"},{"name":"Wing","surname":"Duncan","city":"Bowling Green","location":"-39.77643, 128.77116"},{"name":"Olympia","surname":"Ramirez","city":"Norman Wells","location":"-45.55505, -123.77323"},{"name":"Ross","surname":"Robbins","city":"Castellafiume","location":"89.33316, -47.33986"},{"name":"Brendan","surname":"Mccoy","city":"Chesapeake","location":"-32.02154, -85.14527"},{"name":"Dacey","surname":"Dalton","city":"Gibbons","location":"72.93307, -6.35122"},{"name":"Aquila","surname":"Michael","city":"Hunstanton","location":"69.47354, -5.4179"},{"name":"Quinn","surname":"Ball","city":"Pace del Mela","location":"22.90921, -138.2141"},{"name":"Yvonne","surname":"Castillo","city":"Stafford","location":"-9.32168, 145.28658"},{"name":"Carissa","surname":"Molina","city":"Oyen","location":"14.33644, -174.11511"},{"name":"Tobias","surname":"Romero","city":"Blehen","location":"-32.86607, 179.59832"},{"name":"Amy","surname":"Randolph","city":"Toulouse","location":"-22.60693, 27.76123"},{"name":"Alexa","surname":"Johns","city":"Namen","location":"30.07028, 50.23064"},{"name":"Asher","surname":"Flores","city":"Spaniard's Bay","location":"72.63236, -38.84448"},{"name":"Rashad","surname":"Hernandez","city":"Laces/Latsch","location":"-65.95501, 34.23318"},{"name":"Rama","surname":"Morgan","city":"Valladolid","location":"6.74617, -166.78774"},{"name":"Channing","surname":"Parks","city":"Valcourt","location":"-18.38219, -16.628"},{"name":"Benedict","surname":"Jefferson","city":"Istres","location":"29.23081, 79.37603"},{"name":"Stephen","surname":"Hull","city":"Valbrevenna","location":"11.69391, 87.69418"},{"name":"Roanna","surname":"Mendoza","city":"Gerpinnes","location":"40.04779, -125.15364"},{"name":"Russell","surname":"Lee","city":"Baie-Comeau","location":"20.77823, 88.63922"},{"name":"Austin","surname":"Mcbride","city":"Te Awamutu","location":"-8.53423, 175.02175"},{"name":"Lewis","surname":"Mclaughlin","city":"Beho","location":"-75.66184, -5.93264"},{"name":"Signe","surname":"Norman","city":"EmarÃ¨se","location":"11.17363, -13.92411"},{"name":"Tate","surname":"Hunt","city":"Yellowhead County","location":"76.59953, 171.85823"},{"name":"Kaye","surname":"Dickson","city":"Villanova d'Albenga","location":"-85.3583, -76.03744"},{"name":"Hadley","surname":"Higgins","city":"Massemen","location":"9.4404, -136.7466"},{"name":"Serina","surname":"Langley","city":"Dunedin","location":"6.3575, -69.28929"},{"name":"Gemma","surname":"Harris","city":"Salles","location":"-18.7923, -164.53649"},{"name":"Adam","surname":"Cooper","city":"Lossiemouth","location":"47.28307, 84.24241"},{"name":"Emmanuel","surname":"Atkins","city":"Fort Simpson","location":"-58.00768, -131.69856"},{"name":"Harrison","surname":"Briggs","city":"Belcarra","location":"28.67764, 9.61463"},{"name":"Connor","surname":"Pacheco","city":"Castello Tesino","location":"28.23282, -53.30101"},{"name":"Keith","surname":"Madden","city":"Renlies","location":"-25.95337, -101.4788"},{"name":"Burke","surname":"Huff","city":"San Fele","location":"-60.40586, -27.93369"},{"name":"Candace","surname":"Winters","city":"Kenosha","location":"25.76451, -134.92635"},{"name":"Rudyard","surname":"Gonzalez","city":"Kelowna","location":"-1.48663, -85.40387"},{"name":"Charissa","surname":"Conley","city":"Kirkby Lonsdale","location":"30.8124, 159.05785"},{"name":"Alden","surname":"Lloyd","city":"Knokke","location":"-53.53577, 68.52533"},{"name":"Felix","surname":"Lowery","city":"Dole","location":"27.15954, 158.8823"},{"name":"Dakota","surname":"Simpson","city":"Viernheim","location":"-31.42018, -57.5003"},{"name":"Mikayla","surname":"Delacruz","city":"Dolcedo","location":"-65.83065, 63.9538"},{"name":"Nathaniel","surname":"Hubbard","city":"Ledeberg","location":"-84.84025, 47.71594"},{"name":"Ferdinand","surname":"Wolfe","city":"Machynlleth","location":"-55.64755, 85.71154"},{"name":"Macaulay","surname":"Burris","city":"Oudegem","location":"-44.41028, -15.77941"},{"name":"Hamilton","surname":"Farrell","city":"Varsenare","location":"32.70716, -98.99042"},{"name":"Hall","surname":"Brewer","city":"Camporotondo di Fiastrone","location":"-28.29322, 34.34967"},{"name":"Remedios","surname":"Fields","city":"Romford","location":"71.23449, -108.82145"},{"name":"Orson","surname":"Franco","city":"Salt Spring Island","location":"-76.82398, -160.81163"},{"name":"Arsenio","surname":"Middleton","city":"Iowa City","location":"2.50822, -34.14887"},{"name":"Lillith","surname":"Snow","city":"Den Helder","location":"58.25417, 17.01162"},{"name":"Camille","surname":"Leon","city":"Aurora","location":"-19.28269, -115.46712"},{"name":"Rosalyn","surname":"Davenport","city":"Vitrolles","location":"14.37058, 150.10491"},{"name":"Casey","surname":"Lopez","city":"Turrialba","location":"31.57209, -47.27323"},{"name":"Aurora","surname":"Chambers","city":"Rhemes-Notre-Dame","location":"-80.63244, -123.24469"},{"name":"Isabella","surname":"Lindsey","city":"Holywell","location":"62.16649, 78.46654"},{"name":"Raven","surname":"Underwood","city":"Eugene","location":"-50.94964, -135.74207"},{"name":"Jerry","surname":"Patel","city":"Tongrinne","location":"31.19882, 59.68144"},{"name":"Griffin","surname":"Hopper","city":"Bexbach","location":"-62.1487, -132.4448"},{"name":"Reed","surname":"Knox","city":"Orp-Jauche","location":"18.98433, 152.23772"},{"name":"Quentin","surname":"Buchanan","city":"Port Hope","location":"-30.95229, 101.09119"},{"name":"Leila","surname":"England","city":"Reinbek","location":"33.52083, 132.28546"},{"name":"Margaret","surname":"Bonner","city":"s Herenelderen","location":"87.47954, -85.08865"},{"name":"Cailin","surname":"Doyle","city":"Beveren","location":"-44.09541, 16.31007"},{"name":"Malachi","surname":"Garza","city":"Narbonne","location":"10.49562, -30.99786"},{"name":"Daria","surname":"Rios","city":"East Gwillimbury","location":"57.82261, 45.75922"},{"name":"Bruce","surname":"Malone","city":"Tallahassee","location":"20.1383, -105.35473"},{"name":"Brent","surname":"Barlow","city":"Coreglia Antelminelli","location":"49.23717, -98.98493"},{"name":"Hedy","surname":"Heath","city":"Gulfport","location":"39.40541, 131.96479"},{"name":"Yeo","surname":"Contreras","city":"Mezzana","location":"-53.64973, -39.72327"},{"name":"Chantale","surname":"White","city":"Sant'Arsenio","location":"-62.44733, -112.05375"},{"name":"Darryl","surname":"Luna","city":"Lac Ste. Anne","location":"45.92854, 115.43703"},{"name":"Scott","surname":"Cole","city":"Montgomery","location":"2.53225, -4.15083"}]